{"infoTargets": [
  {
    "name": "Nobel pris: Fysikk",
    "information": "Tidligere NTH student Ivar Giæver mottok nobelprisen i fysikk i 1973. Tidligere NTH student Lars Onsager mottok nobelprisen i kjemi i 1968",
    "lat": 63.417112,
    "lon": 10.403390
  },
  {
    "name": "Nobel pris: Medisin",
    "information": "I 2014, mottok hjerneforskerne May-Britt og Edvard Moser nobelprisen i medisin eller fysiologi sammen med John O'Keefe fra UCL.",
    "lat": 63.416409,
    "lon": 10.406015
  },
  {
    "name": "Strategisk forskning",
    "information": "Gjennom årene 2014-2023  har NTNU 4 tematiske satsingsområder: bærekraft, energi, havrom og helse",
    "lat": 63.419285,
    "lon": 10.400869
  },
  {
    "name": "NTNU Bærekraft",
    "information": "Forsker på bærekraftig sammfunnsutvikling med tanke på miljømessige, økonomiske og sosiale aspekter.",
    "lat": 63.418722,
    "lon": 10.401397
  },
  {
    "name": "NTNU Energi",
    "information": "Fokuserer på utvikling og integrering av fornybare og bærekraftige energikilder.",
    "lat": 63.418803,
    "lon": 10.403196
  },
  {
    "name": "NTNU Hav",
    "information": "Forsker på maritim transport, undervanns utforskning, og polar vitenskap og teknologi.",
    "lat": 63.417882,
    "lon": 10.405025
  },
  {
    "name": "NTNU Helse",
    "information": "Forsker på helsefremming, diagnostikk og terapi, IKT-systemer, velferdsteknologi og organisering av helsetjenester.",
    "lat": 63.416852,
    "lon": 10.406227
  },
  {
    "name": "Kahoot",
    "information": "Kahoot startet som en masteroppgave på NTNU.",
    "lat": 63.417294,
    "lon": 10.402442
  },
  {
    "name": "Bibliotek",
    "information": "NTNUs biblioteker har over 2 millioner bøker. Biblioteket's røtter strekker tilbake til 1768, det er dermed Norge's eldste vitenskapelige bibliotek.",
    "lat": 63.419033,
    "lon": 10.402400
  },
  {
    "name": "Studenter",
    "information": "Det er 35638 registrerte studenter i Trondheim (2019), omtrent en tredel av dem studerer på Gløshaugen.",
    "lat": 63.419057,
    "lon": 10.400786
  }
]}
